[{"Name":"Pasticceria Levante","City":"Bologna","Province":"(BO)","CAP":40139,"Latitude":44.4799,"Longitude":11.3841,"Phone Number":"+39 051 549606"},{"Name":"Pasticceria 2M","City":"Bologna","Province":"(BO)","CAP":40138,"Latitude":44.494,"Longitude":11.38,"Phone Number":"+39 051 0973036"},{"Name":"Pasticceria Baldus","City":"Bologna","Province":"(BO)","CAP":40133,"Latitude":44.4933,"Longitude":11.2842,"Phone Number":"+39 051 569334"},{"Name":"Bar Pasticceria il Kroffo","City":"Bologna","Province":"(BO)","CAP":40127,"Latitude":44.5005,"Longitude":11.3736,"Phone Number":"+39 051 6330441"},{"Name":"Forno Pasticceria Il Cigno di Tatiana Piankova","City":"Bologna","Province":"(BO)","CAP":40137,"Latitude":44.475,"Longitude":11.3686,"Phone Number":"+39 051 0452525"},{"Name":"La Funivia","City":"Bologna","Province":"(BO)","CAP":40135,"Latitude":44.4912,"Longitude":11.3023,"Phone Number":"+39 051 6145062"},{"Name":"Il Gelatauro","City":"Bologna","Province":"(BO)","CAP":40125,"Latitude":44.49407,"Longitude":11.35467,"Phone Number":"+39 051 230049"},{"Name":"Gino Fabbri - La Caramella","City":"Bologna","Province":"(BO)","CAP":40127,"Latitude":44.5342,"Longitude":11.3895,"Phone Number":"+39 051 505074"},{"Name":"Pasticceria Gamberini","City":"Bologna","Province":"(BO)","CAP":40121,"Latitude":44.4956,"Longitude":11.3378,"Phone Number":"+39 051 7417960"},{"Name":"Antica Bologna di Alfieri Ciro Ciro","City":"Bologna","Province":"(BO)","CAP":40125,"Latitude":44.49407,"Longitude":11.35413,"Phone Number":"+39 051 223696"},{"Name":"Ornielli","City":"Bologna","Province":"(BO)","CAP":40133,"Latitude":44.4986,"Longitude":11.2952,"Phone Number":"+39 051 569002"},{"Name":"Cremeria Santo Stefano","City":"Bologna","Province":"(BO)","CAP":40100,"Latitude":44.4881,"Longitude":11.3522,"Phone Number":"+39 051 227045"},{"Name":"Gelateria Moda Di Tolomelli Davide","City":"Bologna","Province":"(BO)","CAP":40127,"Latitude":44.5044,"Longitude":11.3597,"Phone Number":"+39 051 246859"},{"Name":"Cremeria Scirocco","City":"Bologna","Province":"(BO)","CAP":40138,"Latitude":44.4951,"Longitude":11.4007,"Phone Number":"+39 051 6010051"},{"Name":"Gelateria Cremeria Mascarella","City":"Bologna","Province":"(BO)","CAP":40126,"Latitude":44.49911,"Longitude":11.34991,"Phone Number":"+39 051 263236"},{"Name":"Bar Venezia","City":"Bologna","Province":"(BO)","CAP":40134,"Latitude":44.4954,"Longitude":11.3218,"Phone Number":"+39 051 6143652"},{"Name":"Briciole Golose","City":"Bologna","Province":"(BO)","CAP":40134,"Latitude":44.493,"Longitude":11.3193,"Phone Number":"+39 347 8414424"},{"Name":"Atti Paolo & Figli","City":"Bologna","Province":"(BO)","CAP":40124,"Latitude":44.4936,"Longitude":11.34518,"Phone Number":"+39 051 233349"},{"Name":"Giallopasta","City":"Bologna","Province":"(BO)","CAP":40124,"Latitude":44.48926,"Longitude":11.34873,"Phone Number":"+39 051 264777"},{"Name":"Il Kroffo","City":"Bologna","Province":"(BO)","CAP":40138,"Latitude":44.49642,"Longitude":11.37376,"Phone Number":"+39 051 6330441"}]
